{"type":"FeatureCollection","features":[{"type":"Feature","properties":{"id":"MRMMED","name":"Marham Medical Centre","type":"pmc-facility","region":"East","default_visible":1,"point_color_hex":"#fc921f","point_alpha":1,"lon_original":null,"lat_original":null,"snapped_to_land":null,"snap_distance_m":null,"icb_hb_code":"E54000022","icb_hb_code_2026":"E54000068","snap_basis":null},"geometry":{"type":"Point","coordinates":[0.5454710542179357,52.65622211399176]}},{"type":"Feature","properties":{"id":"MCTMED","name":"MCTC Colchester Medical Centre","type":"pmc-facility","region":"East","default_visible":1,"point_color_hex":"#fc921f","point_alpha":1,"lon_original":null,"lat_original":null,"snapped_to_land":null,"snap_distance_m":null,"icb_hb_code":"E54000023","icb_hb_code_2026":"E54000066","snap_basis":null},"geometry":{"type":"Point","coordinates":[0.8934569117449885,51.85865489872226]}},{"type":"Feature","properties":{"id":"WADMED","name":"Waddington Medical Centre","type":"pmc-facility","region":"East","default_visible":1,"point_color_hex":"#fc921f","point_alpha":1,"lon_original":null,"lat_original":null,"snapped_to_land":null,"snap_distance_m":null,"icb_hb_code":"E54000013","icb_hb_code_2026":"E54000013","snap_basis":null},"geometry":{"type":"Point","coordinates":[-0.5256883948222356,53.17623488437612]}},{"type":"Feature","properties":{"id":"WATMED","name":"Wattisham Medical Centre","type":"pmc-facility","region":"East","default_visible":1,"point_color_hex":"#fc921f","point_alpha":1,"lon_original":null,"lat_original":null,"snapped_to_land":null,"snap_distance_m":null,"icb_hb_code":"E54000023","icb_hb_code_2026":"E54000068","snap_basis":null},"geometry":{"type":"Point","coordinates":[0.9677604722621752,52.12279787927493]}},{"type":"Feature","properties":{"id":"WIMMED","name":"Wimbish Medical Centre","type":"pmc-facility","region":"East","default_visible":1,"point_color_hex":"#fc921f","point_alpha":1,"lon_original":null,"lat_original":null,"snapped_to_land":null,"snap_distance_m":null,"icb_hb_code":"E54000025","icb_hb_code_2026":"E54000066","snap_basis":null},"geometry":{"type":"Point","coordinates":[0.28416430058586045,51.987568402277574]}},{"type":"Feature","properties":{"id":"WITMED","name":"Wittering Medical Centre","type":"pmc-facility","region":"East","default_visible":1,"point_color_hex":"#fc921f","point_alpha":1,"lon_original":null,"lat_original":null,"snapped_to_land":null,"snap_distance_m":null,"icb_hb_code":"E54000056","icb_hb_code_2026":"E54000065","snap_basis":null},"geometry":{"type":"Point","coordinates":[-0.447163960246859,52.61409307595952]}},{"type":"Feature","properties":{"id":"WOBMED","name":"Woodbridge Medical Centre","type":"pmc-facility","region":"East","default_visible":1,"point_color_hex":"#fc921f","point_alpha":1,"lon_original":null,"lat_original":null,"snapped_to_land":null,"snap_distance_m":null,"icb_hb_code":"E54000023","icb_hb_code_2026":"E54000068","snap_basis":null},"geometry":{"type":"Point","coordinates":[1.3657229134842428,52.062184295752814]}},{"type":"Feature","properties":{"id":"WYTMED","name":"Wyton Medical Centre","type":"pmc-facility","region":"East","default_visible":1,"point_color_hex":"#fc921f","point_alpha":1,"lon_original":null,"lat_original":null,"snapped_to_land":null,"snap_distance_m":null,"icb_hb_code":"E54000056","icb_hb_code_2026":"E54000065","snap_basis":null},"geometry":{"type":"Point","coordinates":[-0.11898462308654471,52.34874201161586]}},{"type":"Feature","properties":{"id":"BASMED","name":"Bassingbourn Medical Centre","type":"pmc-facility","region":"East","default_visible":1,"point_color_hex":"#fc921f","point_alpha":1,"lon_original":null,"lat_original":null,"snapped_to_land":null,"snap_distance_m":null,"icb_hb_code":"E54000056","icb_hb_code_2026":"E54000065","snap_basis":null},"geometry":{"type":"Point","coordinates":[-0.04360340163026106,52.09321751420122]}},{"type":"Feature","properties":{"id":"CHKMED","name":"Chicksands Medical Centre","type":"pmc-facility","region":"East","default_visible":1,"point_color_hex":"#fc921f","point_alpha":1,"lon_original":null,"lat_original":null,"snapped_to_land":null,"snap_distance_m":null,"icb_hb_code":"E54000024","icb_hb_code_2026":"E54000065","snap_basis":null},"geometry":{"type":"Point","coordinates":[-0.36314745151755107,52.04482229081606]}},{"type":"Feature","properties":{"id":"COLMED","name":"Colchester Medical Centre","type":"pmc-facility","region":"East","default_visible":1,"point_color_hex":"#fc921f","point_alpha":1,"lon_original":null,"lat_original":null,"snapped_to_land":null,"snap_distance_m":null,"icb_hb_code":"E54000023","icb_hb_code_2026":"E54000066","snap_basis":null},"geometry":{"type":"Point","coordinates":[0.8952083947937673,51.87416171323773]}},{"type":"Feature","properties":{"id":"CONMED","name":"Coningsby Medical Centre","type":"pmc-facility","region":"East","default_visible":1,"point_color_hex":"#fc921f","point_alpha":1,"lon_original":null,"lat_original":null,"snapped_to_land":null,"snap_distance_m":null,"icb_hb_code":"E54000013","icb_hb_code_2026":"E54000013","snap_basis":null},"geometry":{"type":"Point","coordinates":[-0.17130739618031285,53.09796911483645]}},{"type":"Feature","properties":{"id":"CTSMED","name":"Cottesmore Medical Centre","type":"pmc-facility","region":"East","default_visible":1,"point_color_hex":"#fc921f","point_alpha":1,"lon_original":null,"lat_original":null,"snapped_to_land":null,"snap_distance_m":null,"icb_hb_code":"E54000015","icb_hb_code_2026":"E54000015","snap_basis":null},"geometry":{"type":"Point","coordinates":[-0.6534115009184066,52.72926499390901]}},{"type":"Feature","properties":{"id":"CRNMED","name":"Cranwell Medical Centre","type":"pmc-facility","region":"East","default_visible":1,"point_color_hex":"#fc921f","point_alpha":1,"lon_original":null,"lat_original":null,"snapped_to_land":null,"snap_distance_m":null,"icb_hb_code":"E54000013","icb_hb_code_2026":"E54000013","snap_basis":null},"geometry":{"type":"Point","coordinates":[-0.49808217805229116,53.03576349074418]}},{"type":"Feature","properties":{"id":"GHYMED","name":"Garats Hay Medical Centre","type":"pmc-facility","region":"East","default_visible":1,"point_color_hex":"#fc921f","point_alpha":1,"lon_original":null,"lat_original":null,"snapped_to_land":null,"snap_distance_m":null,"icb_hb_code":"E54000015","icb_hb_code_2026":"E54000015","snap_basis":null},"geometry":{"type":"Point","coordinates":[-1.2082018767368534,52.732459379086706]}},{"type":"Feature","properties":{"id":"HONMED","name":"Honington Medical Centre","type":"pmc-facility","region":"East","default_visible":1,"point_color_hex":"#fc921f","point_alpha":1,"lon_original":null,"lat_original":null,"snapped_to_land":null,"snap_distance_m":null,"icb_hb_code":"E54000023","icb_hb_code_2026":"E54000068","snap_basis":null},"geometry":{"type":"Point","coordinates":[0.7763122717515052,52.335282477484235]}}]}