{"type": "FeatureCollection", "features": [{"type": "Feature", "properties": {"id": "LEEMED", "name": "Leeming Medical Centre", "type": "pmc-facility", "region": "North", "default_visible": 1, "point_color_hex": "#a7c636", "point_alpha": 1.0, "lon_original": null, "lat_original": null, "snapped_to_land": null, "snap_distance_m": null}, "geometry": {"type": "Point", "coordinates": [-1.5148144087866473, 54.29117909141588]}}, {"type": "Feature", "properties": {"id": "ABWMED", "name": "Abbey Wood Medical Centre", "type": "pmc-facility", "region": "Central & Wessex", "default_visible": 1, "point_color_hex": "#e8c723", "point_alpha": 1.0, "lon_original": null, "lat_original": null, "snapped_to_land": null, "snap_distance_m": null}, "geometry": {"type": "Point", "coordinates": [-2.55906208355502, 51.502831416223735]}}, {"type": "Feature", "properties": {"id": "LEUMED", "name": "Leuchars Medical Centre", "type": "pmc-facility", "region": "Scotland & Northern Ireland", "default_visible": 1, "point_color_hex": "#4862b8", "point_alpha": 1.0, "lon_original": null, "lat_original": null, "snapped_to_land": null, "snap_distance_m": null}, "geometry": {"type": "Point", "coordinates": [-2.8852934644595987, 56.37859380146797]}}, {"type": "Feature", "properties": {"id": "ABIMED", "name": "Abingdon Medical Centre", "type": "pmc-facility", "region": "Central & Wessex", "default_visible": 1, "point_color_hex": "#e8c723", "point_alpha": 1.0, "lon_original": null, "lat_original": null, "snapped_to_land": null, "snap_distance_m": null}, "geometry": {"type": "Point", "coordinates": [-1.3037807191334783, 51.68630268531259]}}, {"type": "Feature", "properties": {"id": "LFDMED", "name": "Lichfield Medical Centre", "type": "pmc-facility", "region": "Wales & West Midlands", "default_visible": 1, "point_color_hex": "#ed5151", "point_alpha": 1.0, "lon_original": null, "lat_original": null, "snapped_to_land": null, "snap_distance_m": null}, "geometry": {"type": "Point", "coordinates": [-1.7758201697256408, 52.660296096072415]}}, {"type": "Feature", "properties": {"id": "ALBMED", "name": "Albemarle Medical Centre", "type": "pmc-facility", "region": "North", "default_visible": 1, "point_color_hex": "#a7c636", "point_alpha": 1.0, "lon_original": null, "lat_original": null, "snapped_to_land": null, "snap_distance_m": null}, "geometry": {"type": "Point", "coordinates": [-1.8717615274721433, 55.01734280119577]}}, {"type": "Feature", "properties": {"id": "LISMED", "name": "Lisburn Medical Centre", "type": "pmc-facility", "region": "Scotland & Northern Ireland", "default_visible": 1, "point_color_hex": "#4862b8", "point_alpha": 1.0, "lon_original": null, "lat_original": null, "snapped_to_land": null, "snap_distance_m": null}, "geometry": {"type": "Point", "coordinates": [-6.07548079045001, 54.55463459857959]}}, {"type": "Feature", "properties": {"id": "ALDMED", "name": "Aldershot Medical Centre", "type": "pmc-facility", "region": "London & South", "default_visible": 1, "point_color_hex": "#419632", "point_alpha": 1.0, "lon_original": null, "lat_original": null, "snapped_to_land": null, "snap_distance_m": null}, "geometry": {"type": "Point", "coordinates": [-0.7656508006743278, 51.25434608252569]}}, {"type": "Feature", "properties": {"id": "LONMED", "name": "London Central Medical Centre", "type": "pmc-facility", "region": "London & South", "default_visible": 1, "point_color_hex": "#419632", "point_alpha": 1.0, "lon_original": null, "lat_original": null, "snapped_to_land": null, "snap_distance_m": null}, "geometry": {"type": "Point", "coordinates": [-0.13682357689978122, 51.49911689153432]}}, {"type": "Feature", "properties": {"id": "BARMED", "name": "Barrow-In-Furness Medical Centre", "type": "pmc-facility", "region": "North", "default_visible": 1, "point_color_hex": "#a7c636", "point_alpha": 1.0, "lon_original": -3.232886296081975, "lat_original": 54.10429588482809, "snapped_to_land": true, "snap_distance_m": 253.2780577049612}, "geometry": {"type": "Point", "coordinates": [-3.2304405431387115, 54.105400326880705]}}, {"type": "Feature", "properties": {"id": "LOSMED", "name": "Lossiemouth Medical Centre", "type": "pmc-facility", "region": "Scotland & Northern Ireland", "default_visible": 1, "point_color_hex": "#4862b8", "point_alpha": 1.0, "lon_original": null, "lat_original": null, "snapped_to_land": null, "snap_distance_m": null}, "geometry": {"type": "Point", "coordinates": [-3.3079100283739047, 57.71035290825364]}}, {"type": "Feature", "properties": {"id": "LYMMED", "name": "Lympstone Medical Centre", "type": "pmc-facility", "region": "South West", "default_visible": 1, "point_color_hex": "#149ece", "point_alpha": 1.0, "lon_original": null, "lat_original": null, "snapped_to_land": null, "snap_distance_m": null}, "geometry": {"type": "Point", "coordinates": [-3.434928469672056, 50.66419727580553]}}, {"type": "Feature", "properties": {"id": "LYNMED", "name": "Lyneham Medical Centre", "type": "pmc-facility", "region": "Central & Wessex", "default_visible": 1, "point_color_hex": "#e8c723", "point_alpha": 1.0, "lon_original": null, "lat_original": null, "snapped_to_land": null, "snap_distance_m": null}, "geometry": {"type": "Point", "coordinates": [-1.9729093076715547, 51.50608330126986]}}, {"type": "Feature", "properties": {"id": "MAIMED", "name": "Maidstone Invicta Park Medical Cent", "type": "pmc-facility", "region": "London & South", "default_visible": 1, "point_color_hex": "#419632", "point_alpha": 1.0, "lon_original": null, "lat_original": null, "snapped_to_land": null, "snap_distance_m": null}, "geometry": {"type": "Point", "coordinates": [0.5193067754329748, 51.28840229993434]}}, {"type": "Feature", "properties": {"id": "MWDMED", "name": "Marchwood Medical Centre", "type": "pmc-facility", "region": "South West", "default_visible": 1, "point_color_hex": "#149ece", "point_alpha": 1.0, "lon_original": null, "lat_original": null, "snapped_to_land": null, "snap_distance_m": null}, "geometry": {"type": "Point", "coordinates": [-1.4402575494496779, 50.89249710060006]}}, {"type": "Feature", "properties": {"id": "MRMMED", "name": "Marham Medical Centre", "type": "pmc-facility", "region": "East", "default_visible": 1, "point_color_hex": "#fc921f", "point_alpha": 1.0, "lon_original": null, "lat_original": null, "snapped_to_land": null, "snap_distance_m": null}, "geometry": {"type": "Point", "coordinates": [0.5454710542179357, 52.65622211399176]}}, {"type": "Feature", "properties": {"id": "MCTMED", "name": "MCTC Colchester Medical Centre", "type": "pmc-facility", "region": "East", "default_visible": 1, "point_color_hex": "#fc921f", "point_alpha": 1.0, "lon_original": null, "lat_original": null, "snapped_to_land": null, "snap_distance_m": null}, "geometry": {"type": "Point", "coordinates": [0.8934569117449885, 51.85865489872226]}}, {"type": "Feature", "properties": {"id": "MIDMED", "name": "Middle Wallop Medical Centre", "type": "pmc-facility", "region": "Central & Wessex", "default_visible": 1, "point_color_hex": "#e8c723", "point_alpha": 1.0, "lon_original": null, "lat_original": null, "snapped_to_land": null, "snap_distance_m": null}, "geometry": {"type": "Point", "coordinates": [-1.5674082549603139, 51.153237196222044]}}, {"type": "Feature", "properties": {"id": "MINMED", "name": "Minley Medical Centre", "type": "pmc-facility", "region": "London & South", "default_visible": 1, "point_color_hex": "#419632", "point_alpha": 1.0, "lon_original": null, "lat_original": null, "snapped_to_land": null, "snap_distance_m": null}, "geometry": {"type": "Point", "coordinates": [-0.8195627828086444, 51.318009403225886]}}, {"type": "Feature", "properties": {"id": "NAPMED", "name": "Naples Medical Centre", "type": "pmc-facility", "region": "Overseas", "default_visible": 0, "point_color_hex": "#808080", "point_alpha": 1.0, "lon_original": null, "lat_original": null, "snapped_to_land": null, "snap_distance_m": null}, "geometry": {"type": "Point", "coordinates": [-0.40680998714816247, 51.553361995566576]}}, {"type": "Feature", "properties": {"id": "NELMED", "name": "Nelson Medical Centre", "type": "pmc-facility", "region": "London & South", "default_visible": 1, "point_color_hex": "#419632", "point_alpha": 1.0, "lon_original": null, "lat_original": null, "snapped_to_land": null, "snap_distance_m": null}, "geometry": {"type": "Point", "coordinates": [-1.096700269942141, 50.80035651540802]}}, {"type": "Feature", "properties": {"id": "NEPMED", "name": "Neptune Medical Centre", "type": "pmc-facility", "region": "Scotland & Northern Ireland", "default_visible": 1, "point_color_hex": "#4862b8", "point_alpha": 1.0, "lon_original": null, "lat_original": null, "snapped_to_land": null, "snap_distance_m": null}, "geometry": {"type": "Point", "coordinates": [-4.816097384409216, 56.065898479827965]}}, {"type": "Feature", "properties": {"id": "NORMED", "name": "Northolt Medical Centre", "type": "pmc-facility", "region": "London & South", "default_visible": 1, "point_color_hex": "#419632", "point_alpha": 1.0, "lon_original": null, "lat_original": null, "snapped_to_land": null, "snap_distance_m": null}, "geometry": {"type": "Point", "coordinates": [-0.40941849081421, 51.55804590398381]}}, {"type": "Feature", "properties": {"id": "NWDMED", "name": "Northwood Medical Centre", "type": "pmc-facility", "region": "London & South", "default_visible": 1, "point_color_hex": "#419632", "point_alpha": 1.0, "lon_original": null, "lat_original": null, "snapped_to_land": null, "snap_distance_m": null}, "geometry": {"type": "Point", "coordinates": [-0.40930935804874774, 51.61903791225719]}}, {"type": "Feature", "properties": {"id": "NMAMED", "name": "Norton Manor Medical Centre", "type": "pmc-facility", "region": "South West", "default_visible": 1, "point_color_hex": "#149ece", "point_alpha": 1.0, "lon_original": null, "lat_original": null, "snapped_to_land": null, "snap_distance_m": null}, "geometry": {"type": "Point", "coordinates": [-3.1538333001140804, 51.0389488981531]}}, {"type": "Feature", "properties": {"id": "ODIMED", "name": "Odiham Medical Centre", "type": "pmc-facility", "region": "London & South", "default_visible": 1, "point_color_hex": "#419632", "point_alpha": 1.0, "lon_original": null, "lat_original": null, "snapped_to_land": null, "snap_distance_m": null}, "geometry": {"type": "Point", "coordinates": [-0.9455183967958548, 51.240601815022394]}}, {"type": "Feature", "properties": {"id": "PIRMED", "name": "Pirbright Medical Centre", "type": "pmc-facility", "region": "London & South", "default_visible": 1, "point_color_hex": "#419632", "point_alpha": 1.0, "lon_original": null, "lat_original": null, "snapped_to_land": null, "snap_distance_m": null}, "geometry": {"type": "Point", "coordinates": [-0.6692302481580957, 51.30269801281507]}}, {"type": "Feature", "properties": {"id": "POKMED", "name": "Pokhara Medical Centre", "type": "pmc-facility", "region": "Overseas", "default_visible": 0, "point_color_hex": "#808080", "point_alpha": 1.0, "lon_original": null, "lat_original": null, "snapped_to_land": null, "snap_distance_m": null}, "geometry": {"type": "Point", "coordinates": [-0.40680998714816247, 51.553361995566576]}}, {"type": "Feature", "properties": {"id": "RALMED", "name": "Raleigh Medical Centre", "type": "pmc-facility", "region": "South West", "default_visible": 1, "point_color_hex": "#149ece", "point_alpha": 1.0, "lon_original": -4.226034872014558, "lat_original": 50.36962438289488, "snapped_to_land": true, "snap_distance_m": 250.56347400905005}, "geometry": {"type": "Point", "coordinates": [-4.226643637338792, 50.37139210304488]}}, {"type": "Feature", "properties": {"id": "REDMED", "name": "Redford Medical Centre", "type": "pmc-facility", "region": "Scotland & Northern Ireland", "default_visible": 1, "point_color_hex": "#4862b8", "point_alpha": 1.0, "lon_original": null, "lat_original": null, "snapped_to_land": null, "snap_distance_m": null}, "geometry": {"type": "Point", "coordinates": [-3.2440903854985446, 55.912857919420944]}}, {"type": "Feature", "properties": {"id": "SANMED", "name": "Sandhurst Medical Centre", "type": "pmc-facility", "region": "London & South", "default_visible": 1, "point_color_hex": "#419632", "point_alpha": 1.0, "lon_original": null, "lat_original": null, "snapped_to_land": null, "snap_distance_m": null}, "geometry": {"type": "Point", "coordinates": [-0.7616642840032106, 51.344019496203906]}}, {"type": "Feature", "properties": {"id": "SHYMED", "name": "Shawbury Medical Centre", "type": "pmc-facility", "region": "Wales & West Midlands", "default_visible": 1, "point_color_hex": "#ed5151", "point_alpha": 1.0, "lon_original": null, "lat_original": null, "snapped_to_land": null, "snap_distance_m": null}, "geometry": {"type": "Point", "coordinates": [-2.6574719124283934, 52.792685281313545]}}, {"type": "Feature", "properties": {"id": "SHOMED", "name": "Shorncliffe Medical Centre", "type": "pmc-facility", "region": "London & South", "default_visible": 1, "point_color_hex": "#419632", "point_alpha": 1.0, "lon_original": null, "lat_original": null, "snapped_to_land": null, "snap_distance_m": null}, "geometry": {"type": "Point", "coordinates": [1.13679512827691, 51.079108775976614]}}, {"type": "Feature", "properties": {"id": "SHVMED", "name": "Shrivenham Medical Centre", "type": "pmc-facility", "region": "Central & Wessex", "default_visible": 1, "point_color_hex": "#e8c723", "point_alpha": 1.0, "lon_original": null, "lat_original": null, "snapped_to_land": null, "snap_distance_m": null}, "geometry": {"type": "Point", "coordinates": [-1.6336837950694723, 51.608433714800256]}}, {"type": "Feature", "properties": {"id": "SPKMED", "name": "Southwick Park Medical Centre", "type": "pmc-facility", "region": "London & South", "default_visible": 1, "point_color_hex": "#419632", "point_alpha": 1.0, "lon_original": null, "lat_original": null, "snapped_to_land": null, "snap_distance_m": null}, "geometry": {"type": "Point", "coordinates": [-1.101325404245486, 50.87546209801029]}}, {"type": "Feature", "properties": {"id": "STAMED", "name": "St Athan Medical Centre", "type": "pmc-facility", "region": "Wales & West Midlands", "default_visible": 1, "point_color_hex": "#ed5151", "point_alpha": 1.0, "lon_original": null, "lat_original": null, "snapped_to_land": null, "snap_distance_m": null}, "geometry": {"type": "Point", "coordinates": [-3.4517211934714003, 51.405517603666375]}}, {"type": "Feature", "properties": {"id": "STMMED", "name": "St Mawgan Medical Centre", "type": "pmc-facility", "region": "South West", "default_visible": 1, "point_color_hex": "#149ece", "point_alpha": 1.0, "lon_original": null, "lat_original": null, "snapped_to_land": null, "snap_distance_m": null}, "geometry": {"type": "Point", "coordinates": [-5.0102165650345745, 50.43744500205805]}}, {"type": "Feature", "properties": {"id": "STFMED", "name": "Stafford Medical Centre", "type": "pmc-facility", "region": "Wales & West Midlands", "default_visible": 1, "point_color_hex": "#ed5151", "point_alpha": 1.0, "lon_original": null, "lat_original": null, "snapped_to_land": null, "snap_distance_m": null}, "geometry": {"type": "Point", "coordinates": [-2.091498317035798, 52.8158469943327]}}, {"type": "Feature", "properties": {"id": "STOMED", "name": "Stonehouse Medical Centre", "type": "pmc-facility", "region": "South West", "default_visible": 1, "point_color_hex": "#149ece", "point_alpha": 1.0, "lon_original": -4.160552427272366, "lat_original": 50.365560081773715, "snapped_to_land": true, "snap_distance_m": 1229.6215696477689}, "geometry": {"type": "Point", "coordinates": [-4.15366492580487, 50.37161256324378]}}, {"type": "Feature", "properties": {"id": "SULMED", "name": "Sultan Medical Centre", "type": "pmc-facility", "region": "London & South", "default_visible": 1, "point_color_hex": "#419632", "point_alpha": 1.0, "lon_original": null, "lat_original": null, "snapped_to_land": null, "snap_distance_m": null}, "geometry": {"type": "Point", "coordinates": [-1.1598900128446352, 50.802301997323816]}}, {"type": "Feature", "properties": {"id": "TERMED", "name": "Tern Hill Medical Centre", "type": "pmc-facility", "region": "Wales & West Midlands", "default_visible": 1, "point_color_hex": "#ed5151", "point_alpha": 1.0, "lon_original": null, "lat_original": null, "snapped_to_land": null, "snap_distance_m": null}, "geometry": {"type": "Point", "coordinates": [-2.5385985047372976, 52.87930977778209]}}, {"type": "Feature", "properties": {"id": "THOMED", "name": "Thorney Island Medical Centre", "type": "pmc-facility", "region": "London & South", "default_visible": 1, "point_color_hex": "#419632", "point_alpha": 1.0, "lon_original": -0.9245229030344558, "lat_original": 50.819434984238555, "snapped_to_land": true, "snap_distance_m": 449.6933137876176}, "geometry": {"type": "Point", "coordinates": [-0.9234820283732614, 50.82228277442623]}}, {"type": "Feature", "properties": {"id": "TIDMED", "name": "Tidworth Medical Centre", "type": "pmc-facility", "region": "Central & Wessex", "default_visible": 1, "point_color_hex": "#e8c723", "point_alpha": 1.0, "lon_original": null, "lat_original": null, "snapped_to_land": null, "snap_distance_m": null}, "geometry": {"type": "Point", "coordinates": [-1.6701645200108677, 51.23395999494216]}}, {"type": "Feature", "properties": {"id": "VALMED", "name": "Valley Medical Centre", "type": "pmc-facility", "region": "Wales & West Midlands", "default_visible": 1, "point_color_hex": "#ed5151", "point_alpha": 1.0, "lon_original": null, "lat_original": null, "snapped_to_land": null, "snap_distance_m": null}, "geometry": {"type": "Point", "coordinates": [-4.532569284349077, 53.25340170286021]}}, {"type": "Feature", "properties": {"id": "WADMED", "name": "Waddington Medical Centre", "type": "pmc-facility", "region": "East", "default_visible": 1, "point_color_hex": "#fc921f", "point_alpha": 1.0, "lon_original": null, "lat_original": null, "snapped_to_land": null, "snap_distance_m": null}, "geometry": {"type": "Point", "coordinates": [-0.5256883948222356, 53.17623488437612]}}, {"type": "Feature", "properties": {"id": "WARMED", "name": "Warminster Medical Centre", "type": "pmc-facility", "region": "Central & Wessex", "default_visible": 1, "point_color_hex": "#e8c723", "point_alpha": 1.0, "lon_original": null, "lat_original": null, "snapped_to_land": null, "snap_distance_m": null}, "geometry": {"type": "Point", "coordinates": [-2.1589878935595195, 51.212396081894326]}}, {"type": "Feature", "properties": {"id": "WATMED", "name": "Wattisham Medical Centre", "type": "pmc-facility", "region": "East", "default_visible": 1, "point_color_hex": "#fc921f", "point_alpha": 1.0, "lon_original": null, "lat_original": null, "snapped_to_land": null, "snap_distance_m": null}, "geometry": {"type": "Point", "coordinates": [0.9677604722621752, 52.12279787927493]}}, {"type": "Feature", "properties": {"id": "WEEMED", "name": "Weeton Medical Centre", "type": "pmc-facility", "region": "Wales & West Midlands", "default_visible": 1, "point_color_hex": "#ed5151", "point_alpha": 1.0, "lon_original": null, "lat_original": null, "snapped_to_land": null, "snap_distance_m": null}, "geometry": {"type": "Point", "coordinates": [-2.9376574778666034, 53.82087838287095]}}, {"type": "Feature", "properties": {"id": "WIMMED", "name": "Wimbish Medical Centre", "type": "pmc-facility", "region": "East", "default_visible": 1, "point_color_hex": "#fc921f", "point_alpha": 1.0, "lon_original": null, "lat_original": null, "snapped_to_land": null, "snap_distance_m": null}, "geometry": {"type": "Point", "coordinates": [0.28416430058586045, 51.987568402277574]}}, {"type": "Feature", "properties": {"id": "WINMED", "name": "Winchester Medical Centre", "type": "pmc-facility", "region": "South West", "default_visible": 1, "point_color_hex": "#149ece", "point_alpha": 1.0, "lon_original": null, "lat_original": null, "snapped_to_land": null, "snap_distance_m": null}, "geometry": {"type": "Point", "coordinates": [-1.338352047214071, 51.090291114641396]}}, {"type": "Feature", "properties": {"id": "WDRMED", "name": "Windsor Combermere Medical Centre", "type": "pmc-facility", "region": "London & South", "default_visible": 1, "point_color_hex": "#419632", "point_alpha": 1.0, "lon_original": null, "lat_original": null, "snapped_to_land": null, "snap_distance_m": null}, "geometry": {"type": "Point", "coordinates": [-0.6163122760082813, 51.47283359054774]}}, {"type": "Feature", "properties": {"id": "WITMED", "name": "Wittering Medical Centre", "type": "pmc-facility", "region": "East", "default_visible": 1, "point_color_hex": "#fc921f", "point_alpha": 1.0, "lon_original": null, "lat_original": null, "snapped_to_land": null, "snap_distance_m": null}, "geometry": {"type": "Point", "coordinates": [-0.447163960246859, 52.61409307595952]}}, {"type": "Feature", "properties": {"id": "WOBMED", "name": "Woodbridge Medical Centre", "type": "pmc-facility", "region": "East", "default_visible": 1, "point_color_hex": "#fc921f", "point_alpha": 1.0, "lon_original": null, "lat_original": null, "snapped_to_land": null, "snap_distance_m": null}, "geometry": {"type": "Point", "coordinates": [1.3657229134842428, 52.062184295752814]}}, {"type": "Feature", "properties": {"id": "WOOMED", "name": "Woolwich Medical Centre", "type": "pmc-facility", "region": "London & South", "default_visible": 1, "point_color_hex": "#419632", "point_alpha": 1.0, "lon_original": null, "lat_original": null, "snapped_to_land": null, "snap_distance_m": null}, "geometry": {"type": "Point", "coordinates": [0.05434810522475437, 51.48490751213652]}}, {"type": "Feature", "properties": {"id": "WTDMED", "name": "Worthy Down Medical Centre", "type": "pmc-facility", "region": "South West", "default_visible": 1, "point_color_hex": "#149ece", "point_alpha": 1.0, "lon_original": null, "lat_original": null, "snapped_to_land": null, "snap_distance_m": null}, "geometry": {"type": "Point", "coordinates": [-1.3233858235064044, 51.11295578094142]}}, {"type": "Feature", "properties": {"id": "WYTMED", "name": "Wyton Medical Centre", "type": "pmc-facility", "region": "East", "default_visible": 1, "point_color_hex": "#fc921f", "point_alpha": 1.0, "lon_original": null, "lat_original": null, "snapped_to_land": null, "snap_distance_m": null}, "geometry": {"type": "Point", "coordinates": [-0.11898462308654471, 52.34874201161586]}}, {"type": "Feature", "properties": {"id": "YEOMED", "name": "Yeovilton Medical Centre", "type": "pmc-facility", "region": "South West", "default_visible": 1, "point_color_hex": "#149ece", "point_alpha": 1.0, "lon_original": null, "lat_original": null, "snapped_to_land": null, "snap_distance_m": null}, "geometry": {"type": "Point", "coordinates": [-2.646716003488331, 51.01178817922441]}}, {"type": "Feature", "properties": {"id": "BASMED", "name": "Bassingbourn Medical Centre", "type": "pmc-facility", "region": "East", "default_visible": 1, "point_color_hex": "#fc921f", "point_alpha": 1.0, "lon_original": null, "lat_original": null, "snapped_to_land": null, "snap_distance_m": null}, "geometry": {"type": "Point", "coordinates": [-0.04360340163026106, 52.09321751420122]}}, {"type": "Feature", "properties": {"id": "BENMED", "name": "Benson Medical Centre", "type": "pmc-facility", "region": "Central & Wessex", "default_visible": 1, "point_color_hex": "#e8c723", "point_alpha": 1.0, "lon_original": null, "lat_original": null, "snapped_to_land": null, "snap_distance_m": null}, "geometry": {"type": "Point", "coordinates": [-1.0880117559726035, 51.6130212141608]}}, {"type": "Feature", "properties": {"id": "BICMED", "name": "Bicester Medical Centre", "type": "pmc-facility", "region": "Central & Wessex", "default_visible": 1, "point_color_hex": "#e8c723", "point_alpha": 1.0, "lon_original": null, "lat_original": null, "snapped_to_land": null, "snap_distance_m": null}, "geometry": {"type": "Point", "coordinates": [-1.1082336845067267, 51.843854888318226]}}, {"type": "Feature", "properties": {"id": "BIHMED", "name": "Bickleigh Medical Centre", "type": "pmc-facility", "region": "South West", "default_visible": 1, "point_color_hex": "#149ece", "point_alpha": 1.0, "lon_original": null, "lat_original": null, "snapped_to_land": null, "snap_distance_m": null}, "geometry": {"type": "Point", "coordinates": [-4.080757882344269, 50.436956001927726]}}, {"type": "Feature", "properties": {"id": "BMFMED", "name": "Birmingham BMF Medical Centre", "type": "pmc-facility", "region": "Wales & West Midlands", "default_visible": 1, "point_color_hex": "#ed5151", "point_alpha": 1.0, "lon_original": null, "lat_original": null, "snapped_to_land": null, "snap_distance_m": null}, "geometry": {"type": "Point", "coordinates": [-1.9426554147500656, 52.449756811244484]}}, {"type": "Feature", "properties": {"id": "BLAMED", "name": "Blandford Medical Centre", "type": "pmc-facility", "region": "South West", "default_visible": 1, "point_color_hex": "#149ece", "point_alpha": 1.0, "lon_original": null, "lat_original": null, "snapped_to_land": null, "snap_distance_m": null}, "geometry": {"type": "Point", "coordinates": [-2.124972873771248, 50.868205213889915]}}, {"type": "Feature", "properties": {"id": "BOUMED", "name": "Boulmer Medical Centre", "type": "pmc-facility", "region": "North", "default_visible": 1, "point_color_hex": "#a7c636", "point_alpha": 1.0, "lon_original": null, "lat_original": null, "snapped_to_land": null, "snap_distance_m": null}, "geometry": {"type": "Point", "coordinates": [-1.6008911064579332, 55.423054114609386]}}, {"type": "Feature", "properties": {"id": "BOVMED", "name": "Bovington Medical Centre", "type": "pmc-facility", "region": "South West", "default_visible": 1, "point_color_hex": "#149ece", "point_alpha": 1.0, "lon_original": null, "lat_original": null, "snapped_to_land": null, "snap_distance_m": null}, "geometry": {"type": "Point", "coordinates": [-2.237345277989756, 50.69921908845928]}}, {"type": "Feature", "properties": {"id": "BRMMED", "name": "Bramcote Medical Centre", "type": "pmc-facility", "region": "Wales & West Midlands", "default_visible": 1, "point_color_hex": "#ed5151", "point_alpha": 1.0, "lon_original": null, "lat_original": null, "snapped_to_land": null, "snap_distance_m": null}, "geometry": {"type": "Point", "coordinates": [-1.399176416539867, 52.49328960868574]}}, {"type": "Feature", "properties": {"id": "BRWMED", "name": "Brawdy Medical Centre", "type": "pmc-facility", "region": "Wales & West Midlands", "default_visible": 1, "point_color_hex": "#ed5151", "point_alpha": 1.0, "lon_original": null, "lat_original": null, "snapped_to_land": null, "snap_distance_m": null}, "geometry": {"type": "Point", "coordinates": [-5.129104892232823, 51.87870508182924]}}, {"type": "Feature", "properties": {"id": "BREMED", "name": "Brecon Medical Centre", "type": "pmc-facility", "region": "Wales & West Midlands", "default_visible": 1, "point_color_hex": "#ed5151", "point_alpha": 1.0, "lon_original": null, "lat_original": null, "snapped_to_land": null, "snap_distance_m": null}, "geometry": {"type": "Point", "coordinates": [-3.365080729480212, 51.942207176488]}}, {"type": "Feature", "properties": {"id": "BRNMED", "name": "Britannia Medical Centre", "type": "pmc-facility", "region": "South West", "default_visible": 1, "point_color_hex": "#149ece", "point_alpha": 1.0, "lon_original": null, "lat_original": null, "snapped_to_land": null, "snap_distance_m": null}, "geometry": {"type": "Point", "coordinates": [-3.583032089345803, 50.35760108767212]}}, {"type": "Feature", "properties": {"id": "BZNMED", "name": "Brize Norton Medical Centre", "type": "pmc-facility", "region": "Central & Wessex", "default_visible": 1, "point_color_hex": "#e8c723", "point_alpha": 1.0, "lon_original": null, "lat_original": null, "snapped_to_land": null, "snap_distance_m": null}, "geometry": {"type": "Point", "coordinates": [-1.5816693924624772, 51.762306807749994]}}, {"type": "Feature", "properties": {"id": "BULMED", "name": "Bulford Medical Centre", "type": "pmc-facility", "region": "Central & Wessex", "default_visible": 1, "point_color_hex": "#e8c723", "point_alpha": 1.0, "lon_original": null, "lat_original": null, "snapped_to_land": null, "snap_distance_m": null}, "geometry": {"type": "Point", "coordinates": [-1.7349728923345469, 51.19455109386885]}}, {"type": "Feature", "properties": {"id": "CATMED", "name": "Catterick Medical Centre", "type": "pmc-facility", "region": "North", "default_visible": 1, "point_color_hex": "#a7c636", "point_alpha": 1.0, "lon_original": null, "lat_original": null, "snapped_to_land": null, "snap_distance_m": null}, "geometry": {"type": "Point", "coordinates": [-1.7465955733316085, 54.372921716416926]}}, {"type": "Feature", "properties": {"id": "CHAMED", "name": "Chatham Medical Centre", "type": "pmc-facility", "region": "London & South", "default_visible": 1, "point_color_hex": "#419632", "point_alpha": 1.0, "lon_original": null, "lat_original": null, "snapped_to_land": null, "snap_distance_m": null}, "geometry": {"type": "Point", "coordinates": [0.5332142807284677, 51.392446780027804]}}, {"type": "Feature", "properties": {"id": "CHPMED", "name": "Chepstow Medical Centre", "type": "pmc-facility", "region": "Wales & West Midlands", "default_visible": 1, "point_color_hex": "#ed5151", "point_alpha": 1.0, "lon_original": -2.651459909188206, "lat_original": 51.62019578851495, "snapped_to_land": true, "snap_distance_m": 848.1980784795684}, "geometry": {"type": "Point", "coordinates": [-2.6580821885840775, 51.623394083385335]}}, {"type": "Feature", "properties": {"id": "CHSMED", "name": "Chester Medical Centre", "type": "pmc-facility", "region": "Wales & West Midlands", "default_visible": 1, "point_color_hex": "#ed5151", "point_alpha": 1.0, "lon_original": null, "lat_original": null, "snapped_to_land": null, "snap_distance_m": null}, "geometry": {"type": "Point", "coordinates": [-2.8950532704473777, 53.22527170025772]}}, {"type": "Feature", "properties": {"id": "CHKMED", "name": "Chicksands Medical Centre", "type": "pmc-facility", "region": "East", "default_visible": 1, "point_color_hex": "#fc921f", "point_alpha": 1.0, "lon_original": null, "lat_original": null, "snapped_to_land": null, "snap_distance_m": null}, "geometry": {"type": "Point", "coordinates": [-0.36314745151755107, 52.04482229081606]}}, {"type": "Feature", "properties": {"id": "CHVMED", "name": "Chivenor Medical Centre", "type": "pmc-facility", "region": "South West", "default_visible": 1, "point_color_hex": "#149ece", "point_alpha": 1.0, "lon_original": null, "lat_original": null, "snapped_to_land": null, "snap_distance_m": null}, "geometry": {"type": "Point", "coordinates": [-4.1413425295029604, 51.09304737804313]}}, {"type": "Feature", "properties": {"id": "COLMED", "name": "Colchester Medical Centre", "type": "pmc-facility", "region": "East", "default_visible": 1, "point_color_hex": "#fc921f", "point_alpha": 1.0, "lon_original": null, "lat_original": null, "snapped_to_land": null, "snap_distance_m": null}, "geometry": {"type": "Point", "coordinates": [0.8952083947937673, 51.87416171323773]}}, {"type": "Feature", "properties": {"id": "CWDMED", "name": "Collingwood Medical Centre", "type": "pmc-facility", "region": "London & South", "default_visible": 1, "point_color_hex": "#419632", "point_alpha": 1.0, "lon_original": null, "lat_original": null, "snapped_to_land": null, "snap_distance_m": null}, "geometry": {"type": "Point", "coordinates": [-1.1883558778691836, 50.834301588847914]}}, {"type": "Feature", "properties": {"id": "CDRMED", "name": "Condor Medical Centre", "type": "pmc-facility", "region": "Scotland & Northern Ireland", "default_visible": 1, "point_color_hex": "#4862b8", "point_alpha": 1.0, "lon_original": null, "lat_original": null, "snapped_to_land": null, "snap_distance_m": null}, "geometry": {"type": "Point", "coordinates": [-2.6338461758523852, 56.585495004790126]}}, {"type": "Feature", "properties": {"id": "CONMED", "name": "Coningsby Medical Centre", "type": "pmc-facility", "region": "East", "default_visible": 1, "point_color_hex": "#fc921f", "point_alpha": 1.0, "lon_original": null, "lat_original": null, "snapped_to_land": null, "snap_distance_m": null}, "geometry": {"type": "Point", "coordinates": [-0.17130739618031285, 53.09796911483645]}}, {"type": "Feature", "properties": {"id": "CORMED", "name": "Corsham Medical Centre", "type": "pmc-facility", "region": "Central & Wessex", "default_visible": 1, "point_color_hex": "#e8c723", "point_alpha": 1.0, "lon_original": null, "lat_original": null, "snapped_to_land": null, "snap_distance_m": null}, "geometry": {"type": "Point", "coordinates": [-2.185495494950914, 51.43439648750666]}}, {"type": "Feature", "properties": {"id": "COSMED", "name": "Cosford Medical Centre", "type": "pmc-facility", "region": "Wales & West Midlands", "default_visible": 1, "point_color_hex": "#ed5151", "point_alpha": 1.0, "lon_original": null, "lat_original": null, "snapped_to_land": null, "snap_distance_m": null}, "geometry": {"type": "Point", "coordinates": [-2.306817507349316, 52.6489698817617]}}, {"type": "Feature", "properties": {"id": "CTSMED", "name": "Cottesmore Medical Centre", "type": "pmc-facility", "region": "East", "default_visible": 1, "point_color_hex": "#fc921f", "point_alpha": 1.0, "lon_original": null, "lat_original": null, "snapped_to_land": null, "snap_distance_m": null}, "geometry": {"type": "Point", "coordinates": [-0.6534115009184066, 52.72926499390901]}}, {"type": "Feature", "properties": {"id": "CRNMED", "name": "Cranwell Medical Centre", "type": "pmc-facility", "region": "East", "default_visible": 1, "point_color_hex": "#fc921f", "point_alpha": 1.0, "lon_original": null, "lat_original": null, "snapped_to_land": null, "snap_distance_m": null}, "geometry": {"type": "Point", "coordinates": [-0.49808217805229116, 53.03576349074418]}}, {"type": "Feature", "properties": {"id": "CULMED", "name": "Culdrose Medical Centre", "type": "pmc-facility", "region": "South West", "default_visible": 1, "point_color_hex": "#149ece", "point_alpha": 1.0, "lon_original": null, "lat_original": null, "snapped_to_land": null, "snap_distance_m": null}, "geometry": {"type": "Point", "coordinates": [-5.258239677962434, 50.08306291297658]}}, {"type": "Feature", "properties": {"id": "DGPMED", "name": "Defence Global Practice Med Cent", "type": "pmc-facility", "region": "Overseas", "default_visible": 0, "point_color_hex": "#808080", "point_alpha": 1.0, "lon_original": null, "lat_original": null, "snapped_to_land": null, "snap_distance_m": null}, "geometry": {"type": "Point", "coordinates": [-1.7758201697256408, 52.660296096072415]}}, {"type": "Feature", "properties": {"id": "DISMED", "name": "Dishforth Medical Centre", "type": "pmc-facility", "region": "North", "default_visible": 1, "point_color_hex": "#a7c636", "point_alpha": 1.0, "lon_original": null, "lat_original": null, "snapped_to_land": null, "snap_distance_m": null}, "geometry": {"type": "Point", "coordinates": [-1.4096423951868071, 54.13498940830795]}}, {"type": "Feature", "properties": {"id": "DRAMED", "name": "Drake Medical Centre", "type": "pmc-facility", "region": "South West", "default_visible": 1, "point_color_hex": "#149ece", "point_alpha": 1.0, "lon_original": -4.182568920367431, "lat_original": 50.389496492519505, "snapped_to_land": true, "snap_distance_m": 782.6400903168119}, "geometry": {"type": "Point", "coordinates": [-4.175413724263731, 50.39156629773083]}}, {"type": "Feature", "properties": {"id": "EXCMED", "name": "Excellent Medical Centre", "type": "pmc-facility", "region": "London & South", "default_visible": 1, "point_color_hex": "#419632", "point_alpha": 1.0, "lon_original": null, "lat_original": null, "snapped_to_land": null, "snap_distance_m": null}, "geometry": {"type": "Point", "coordinates": [-1.0900231615936131, 50.81571689777717]}}, {"type": "Feature", "properties": {"id": "GHYMED", "name": "Garats Hay Medical Centre", "type": "pmc-facility", "region": "East", "default_visible": 1, "point_color_hex": "#fc921f", "point_alpha": 1.0, "lon_original": null, "lat_original": null, "snapped_to_land": null, "snap_distance_m": null}, "geometry": {"type": "Point", "coordinates": [-1.2082018767368534, 52.732459379086706]}}, {"type": "Feature", "properties": {"id": "HALMED", "name": "Halton Medical Centre", "type": "pmc-facility", "region": "Central & Wessex", "default_visible": 1, "point_color_hex": "#e8c723", "point_alpha": 1.0, "lon_original": null, "lat_original": null, "snapped_to_land": null, "snap_distance_m": null}, "geometry": {"type": "Point", "coordinates": [-0.7279707932954997, 51.77513367587142]}}, {"type": "Feature", "properties": {"id": "HAMMED", "name": "Hamworthy Napier Road Medical Cent", "type": "pmc-facility", "region": "South West", "default_visible": 1, "point_color_hex": "#149ece", "point_alpha": 1.0, "lon_original": -2.0255311478126727, "lat_original": 50.72036889336718, "snapped_to_land": true, "snap_distance_m": 319.6352493515757}, "geometry": {"type": "Point", "coordinates": [-2.0221900239285806, 50.72135047454424]}}, {"type": "Feature", "properties": {"id": "HERMED", "name": "Hereford Medical Centre", "type": "pmc-facility", "region": "Wales & West Midlands", "default_visible": 1, "point_color_hex": "#ed5151", "point_alpha": 1.0, "lon_original": null, "lat_original": null, "snapped_to_land": null, "snap_distance_m": null}, "geometry": {"type": "Point", "coordinates": [-2.7904811495366113, 52.08627780139491]}}, {"type": "Feature", "properties": {"id": "HWYMED", "name": "High Wycombe Medical Centre", "type": "pmc-facility", "region": "Central & Wessex", "default_visible": 1, "point_color_hex": "#e8c723", "point_alpha": 1.0, "lon_original": null, "lat_original": null, "snapped_to_land": null, "snap_distance_m": null}, "geometry": {"type": "Point", "coordinates": [-0.7910910497712643, 51.674806108781354]}}, {"type": "Feature", "properties": {"id": "HWDMED", "name": "Holywood Medical Centre", "type": "pmc-facility", "region": "Scotland & Northern Ireland", "default_visible": 1, "point_color_hex": "#4862b8", "point_alpha": 1.0, "lon_original": null, "lat_original": null, "snapped_to_land": null, "snap_distance_m": null}, "geometry": {"type": "Point", "coordinates": [-5.836479689774178, 54.623041498662694]}}, {"type": "Feature", "properties": {"id": "HONMED", "name": "Honington Medical Centre", "type": "pmc-facility", "region": "East", "default_visible": 1, "point_color_hex": "#fc921f", "point_alpha": 1.0, "lon_original": null, "lat_original": null, "snapped_to_land": null, "snap_distance_m": null}, "geometry": {"type": "Point", "coordinates": [0.7763122717515052, 52.335282477484235]}}, {"type": "Feature", "properties": {"id": "HYDMED", "name": "Hyde Park Medical Centre", "type": "pmc-facility", "region": "London & South", "default_visible": 1, "point_color_hex": "#419632", "point_alpha": 1.0, "lon_original": null, "lat_original": null, "snapped_to_land": null, "snap_distance_m": null}, "geometry": {"type": "Point", "coordinates": [-0.1632643742849271, 51.50226769086579]}}, {"type": "Feature", "properties": {"id": "IMPMED", "name": "Imphal Medical Centre", "type": "pmc-facility", "region": "North", "default_visible": 1, "point_color_hex": "#a7c636", "point_alpha": 1.0, "lon_original": null, "lat_original": null, "snapped_to_land": null, "snap_distance_m": null}, "geometry": {"type": "Point", "coordinates": [-1.0736814664543273, 53.9438839853503]}}, {"type": "Feature", "properties": {"id": "INWMED", "name": "Innsworth Medical Centre", "type": "pmc-facility", "region": "Wales & West Midlands", "default_visible": 1, "point_color_hex": "#ed5151", "point_alpha": 1.0, "lon_original": null, "lat_original": null, "snapped_to_land": null, "snap_distance_m": null}, "geometry": {"type": "Point", "coordinates": [-2.1982519966675844, 51.890167795459035]}}, {"type": "Feature", "properties": {"id": "ITCMED", "name": "ITC Catterick Medical Centre", "type": "pmc-facility", "region": "North", "default_visible": 1, "point_color_hex": "#a7c636", "point_alpha": 1.0, "lon_original": null, "lat_original": null, "snapped_to_land": null, "snap_distance_m": null}, "geometry": {"type": "Point", "coordinates": [-1.7165013555277007, 54.36405638665844]}}, {"type": "Feature", "properties": {"id": "KENMED", "name": "Kentigern House Medical Centre", "type": "pmc-facility", "region": "Scotland & Northern Ireland", "default_visible": 1, "point_color_hex": "#4862b8", "point_alpha": 1.0, "lon_original": null, "lat_original": null, "snapped_to_land": null, "snap_distance_m": null}, "geometry": {"type": "Point", "coordinates": [-4.26606206166117, 55.85861108045142]}}, {"type": "Feature", "properties": {"id": "KLSMED", "name": "Kinloss Medical Centre", "type": "pmc-facility", "region": "Scotland & Northern Ireland", "default_visible": 1, "point_color_hex": "#4862b8", "point_alpha": 1.0, "lon_original": null, "lat_original": null, "snapped_to_land": null, "snap_distance_m": null}, "geometry": {"type": "Point", "coordinates": [-3.558302622042598, 57.64096168825664]}}, {"type": "Feature", "properties": {"id": "LARMED", "name": "Larkhill Medical Centre", "type": "pmc-facility", "region": "Central & Wessex", "default_visible": 1, "point_color_hex": "#e8c723", "point_alpha": 1.0, "lon_original": null, "lat_original": null, "snapped_to_land": null, "snap_distance_m": null}, "geometry": {"type": "Point", "coordinates": [-1.8207656114436965, 51.19744771204843]}}, {"type": "Feature", "properties": {"id": "LECMED", "name": "Leconfield Medical Centre", "type": "pmc-facility", "region": "North", "default_visible": 1, "point_color_hex": "#a7c636", "point_alpha": 1.0, "lon_original": null, "lat_original": null, "snapped_to_land": null, "snap_distance_m": null}, "geometry": {"type": "Point", "coordinates": [-0.44896078779899073, 53.878323295414006]}}]}